{"activity":[{"name":"dashboard visited","desc":"User has visited dashboard..","date":"22-03-2016","time":"05:55:07","ipaddress":"127.0.0.1","geo":{"ip":"127.0.0.1","isoCode":"US","country":"United States","city":"New Haven","state":"CT","postal_code":"06510","lat":41.31,"lon":-72.92,"timezone":"America\/New_York","continent":"NA","default":true}},{"name":"dashboard visited","desc":"User has visited dashboard..","date":"22-03-2016","time":"05:55:08","ipaddress":"127.0.0.1","geo":{"ip":"127.0.0.1","isoCode":"US","country":"United States","city":"New Haven","state":"CT","postal_code":"06510","lat":41.31,"lon":-72.92,"timezone":"America\/New_York","continent":"NA","default":true}},{"name":"dashboard visited","desc":"User has visited dashboard..","date":"22-03-2016","time":"05:55:08","ipaddress":"127.0.0.1","geo":{"ip":"127.0.0.1","isoCode":"US","country":"United States","city":"New Haven","state":"CT","postal_code":"06510","lat":41.31,"lon":-72.92,"timezone":"America\/New_York","continent":"NA","default":true}},{"name":"dashboard visited","desc":"User has visited dashboard..","date":"22-03-2016","time":"05:55:09","ipaddress":"127.0.0.1","geo":{"ip":"127.0.0.1","isoCode":"US","country":"United States","city":"New Haven","state":"CT","postal_code":"06510","lat":41.31,"lon":-72.92,"timezone":"America\/New_York","continent":"NA","default":true}},{"name":"logged In","desc":"User has logged in..","date":"22-03-2016","time":"07:57:19","ipaddress":"127.0.0.1","geo":{"ip":"127.0.0.1","isoCode":"US","country":"United States","city":"New Haven","state":"CT","postal_code":"06510","lat":41.31,"lon":-72.92,"timezone":"America\/New_York","continent":"NA","default":true}},{"name":"dashboard visited","desc":"User has visited dashboard..","date":"22-03-2016","time":"07:57:19","ipaddress":"127.0.0.1","geo":{"ip":"127.0.0.1","isoCode":"US","country":"United States","city":"New Haven","state":"CT","postal_code":"06510","lat":41.31,"lon":-72.92,"timezone":"America\/New_York","continent":"NA","default":true}},{"name":"logged In","desc":"User has logged in..","date":"22-03-2016","time":"08:03:32","ipaddress":"127.0.0.1","geo":{"ip":"127.0.0.1","isoCode":"US","country":"United States","city":"New Haven","state":"CT","postal_code":"06510","lat":41.31,"lon":-72.92,"timezone":"America\/New_York","continent":"NA","default":true}},{"name":"dashboard visited","desc":"User has visited dashboard..","date":"22-03-2016","time":"08:03:32","ipaddress":"127.0.0.1","geo":{"ip":"127.0.0.1","isoCode":"US","country":"United States","city":"New Haven","state":"CT","postal_code":"06510","lat":41.31,"lon":-72.92,"timezone":"America\/New_York","continent":"NA","default":true}},{"name":"logged In","desc":"User has logged in..","date":"23-03-2016","time":"04:37:43","ipaddress":"127.0.0.1","geo":{"ip":"127.0.0.1","isoCode":"US","country":"United States","city":"New Haven","state":"CT","postal_code":"06510","lat":41.31,"lon":-72.92,"timezone":"America\/New_York","continent":"NA","default":true}},{"name":"dashboard visited","desc":"User has visited dashboard..","date":"23-03-2016","time":"04:37:43","ipaddress":"127.0.0.1","geo":{"ip":"127.0.0.1","isoCode":"US","country":"United States","city":"New Haven","state":"CT","postal_code":"06510","lat":41.31,"lon":-72.92,"timezone":"America\/New_York","continent":"NA","default":true}},{"name":"dashboard visited","desc":"User has visited dashboard..","date":"23-03-2016","time":"04:50:17","ipaddress":"127.0.0.1","geo":{"ip":"127.0.0.1","isoCode":"US","country":"United States","city":"New Haven","state":"CT","postal_code":"06510","lat":41.31,"lon":-72.92,"timezone":"America\/New_York","continent":"NA","default":true}},{"name":"dashboard visited","desc":"User has visited dashboard..","date":"23-03-2016","time":"05:42:47","ipaddress":"127.0.0.1","geo":{"ip":"127.0.0.1","isoCode":"US","country":"United States","city":"New Haven","state":"CT","postal_code":"06510","lat":41.31,"lon":-72.92,"timezone":"America\/New_York","continent":"NA","default":true}},{"name":"logged In","desc":"User has logged in..","date":"23-03-2016","time":"09:55:52","ipaddress":"127.0.0.1","geo":{"ip":"127.0.0.1","isoCode":"US","country":"United States","city":"New Haven","state":"CT","postal_code":"06510","lat":41.31,"lon":-72.92,"timezone":"America\/New_York","continent":"NA","default":true}},{"name":"dashboard visited","desc":"User has visited dashboard..","date":"23-03-2016","time":"09:55:53","ipaddress":"127.0.0.1","geo":{"ip":"127.0.0.1","isoCode":"US","country":"United States","city":"New Haven","state":"CT","postal_code":"06510","lat":41.31,"lon":-72.92,"timezone":"America\/New_York","continent":"NA","default":true}},{"name":"logged In","desc":"User has logged in..","date":"23-03-2016","time":"10:05:38","ipaddress":"172.16.2.139","geo":{"ip":"172.16.2.139","isoCode":"US","country":"United States","city":"New Haven","state":"CT","postal_code":"06510","lat":41.31,"lon":-72.92,"timezone":"America\/New_York","continent":"NA","default":true}},{"name":"dashboard visited","desc":"User has visited dashboard..","date":"23-03-2016","time":"10:05:38","ipaddress":"172.16.2.139","geo":{"ip":"172.16.2.139","isoCode":"US","country":"United States","city":"New Haven","state":"CT","postal_code":"06510","lat":41.31,"lon":-72.92,"timezone":"America\/New_York","continent":"NA","default":true}},{"name":"dashboard visited","desc":"User has visited dashboard..","date":"23-03-2016","time":"10:14:52","ipaddress":"172.16.2.139","geo":{"ip":"172.16.2.139","isoCode":"US","country":"United States","city":"New Haven","state":"CT","postal_code":"06510","lat":41.31,"lon":-72.92,"timezone":"America\/New_York","continent":"NA","default":true}},{"name":"logged In","desc":"User has logged in..","date":"23-03-2016","time":"10:22:54","ipaddress":"172.16.2.139","geo":{"ip":"172.16.2.139","isoCode":"US","country":"United States","city":"New Haven","state":"CT","postal_code":"06510","lat":41.31,"lon":-72.92,"timezone":"America\/New_York","continent":"NA","default":true}},{"name":"dashboard visited","desc":"User has visited dashboard..","date":"23-03-2016","time":"10:22:54","ipaddress":"172.16.2.139","geo":{"ip":"172.16.2.139","isoCode":"US","country":"United States","city":"New Haven","state":"CT","postal_code":"06510","lat":41.31,"lon":-72.92,"timezone":"America\/New_York","continent":"NA","default":true}},{"name":"dashboard visited","desc":"User has visited dashboard..","date":"23-03-2016","time":"10:31:16","ipaddress":"172.16.2.139","geo":{"ip":"172.16.2.139","isoCode":"US","country":"United States","city":"New Haven","state":"CT","postal_code":"06510","lat":41.31,"lon":-72.92,"timezone":"America\/New_York","continent":"NA","default":true}},{"name":"dashboard visited","desc":"User has visited dashboard..","date":"23-03-2016","time":"10:34:55","ipaddress":"172.16.2.139","geo":{"ip":"172.16.2.139","isoCode":"US","country":"United States","city":"New Haven","state":"CT","postal_code":"06510","lat":41.31,"lon":-72.92,"timezone":"America\/New_York","continent":"NA","default":true}},{"name":"dashboard visited","desc":"User has visited dashboard..","date":"23-03-2016","time":"10:35:38","ipaddress":"172.16.2.139","geo":{"ip":"172.16.2.139","isoCode":"US","country":"United States","city":"New Haven","state":"CT","postal_code":"06510","lat":41.31,"lon":-72.92,"timezone":"America\/New_York","continent":"NA","default":true}},{"name":"dashboard visited","desc":"User has visited dashboard..","date":"23-03-2016","time":"10:37:49","ipaddress":"172.16.2.139","geo":{"ip":"172.16.2.139","isoCode":"US","country":"United States","city":"New Haven","state":"CT","postal_code":"06510","lat":41.31,"lon":-72.92,"timezone":"America\/New_York","continent":"NA","default":true}},{"name":"dashboard visited","desc":"User has visited dashboard..","date":"23-03-2016","time":"10:38:48","ipaddress":"172.16.2.139","geo":{"ip":"172.16.2.139","isoCode":"US","country":"United States","city":"New Haven","state":"CT","postal_code":"06510","lat":41.31,"lon":-72.92,"timezone":"America\/New_York","continent":"NA","default":true}},{"name":"dashboard visited","desc":"User has visited dashboard..","date":"23-03-2016","time":"10:39:58","ipaddress":"172.16.2.139","geo":{"ip":"172.16.2.139","isoCode":"US","country":"United States","city":"New Haven","state":"CT","postal_code":"06510","lat":41.31,"lon":-72.92,"timezone":"America\/New_York","continent":"NA","default":true}},{"name":"logged In","desc":"User has logged in..","date":"24-03-2016","time":"05:12:07","ipaddress":"127.0.0.1","geo":{"ip":"127.0.0.1","isoCode":"US","country":"United States","city":"New Haven","state":"CT","postal_code":"06510","lat":41.31,"lon":-72.92,"timezone":"America\/New_York","continent":"NA","default":true}},{"name":"dashboard visited","desc":"User has visited dashboard..","date":"24-03-2016","time":"05:12:07","ipaddress":"127.0.0.1","geo":{"ip":"127.0.0.1","isoCode":"US","country":"United States","city":"New Haven","state":"CT","postal_code":"06510","lat":41.31,"lon":-72.92,"timezone":"America\/New_York","continent":"NA","default":true}}]}