{"activity":[{"name":"logged In","desc":"User has logged in..","time":{"date":"2016-03-17 12:35:23.000000","timezone_type":3,"timezone":"UTC"},"ipaddress":"127.0.0.1","geo":{"ip":"127.0.0.1","isoCode":"US","country":"United States","city":"New Haven","state":"CT","postal_code":"06510","lat":41.31,"lon":-72.92,"timezone":"America\/New_York","continent":"NA","default":true}},{"name":"dashboard visited","desc":"User has visited dashboard..","time":{"date":"2016-03-17 12:35:23.000000","timezone_type":3,"timezone":"UTC"},"ipaddress":"127.0.0.1","geo":{"ip":"127.0.0.1","isoCode":"US","country":"United States","city":"New Haven","state":"CT","postal_code":"06510","lat":41.31,"lon":-72.92,"timezone":"America\/New_York","continent":"NA","default":true}},{"name":"dashboard visited","desc":"User has visited dashboard..","time":{"date":"2016-03-17 12:36:33.000000","timezone_type":3,"timezone":"UTC"},"ipaddress":"127.0.0.1","geo":{"ip":"127.0.0.1","isoCode":"US","country":"United States","city":"New Haven","state":"CT","postal_code":"06510","lat":41.31,"lon":-72.92,"timezone":"America\/New_York","continent":"NA","default":true}}]}